$GPRMC,111221.00,A,2233.9097,N,11405.2527,E,14.18,340.91,170604,-1.6,E,A*2C
$GPRMC,111222.00,A,2233.9135,N,11405.2512,E,14.60,340.15,170604,-1.6,E,A*23
$GPRMC,111223.00,A,2233.9175,N,11405.2497,E,14.98,340.61,170604,-1.6,E,A*2E
$GPRMC,111224.00,A,2233.9217,N,11405.2480,E,15.38,340.56,170604,-1.6,E,A*27
$GPRMC,111225.00,A,2233.9256,N,11405.2463,E,14.95,340.15,170604,-1.6,E,A*2F
$GPRMC,111226.00,A,2233.9294,N,11405.2448,E,14.65,340.33,170604,-1.6,E,A*20
$GPRMC,111227.00,A,2233.9334,N,11405.2432,E,15.00,340.70,170604,-1.6,E,A*22
$GPRMC,111228.00,A,2233.9376,N,11405.2416,E,15.19,340.34,170604,-1.6,E,A*25
$GPRMC,111229.00,A,2233.9416,N,11405.2402,E,15.39,340.45,170604,-1.6,E,A*24
$GPRMC,111230.00,A,2233.9457,N,11405.2386,E,15.59,339.98,170604,-1.6,E,A*2A
$GPRMC,111231.00,A,2233.9502,N,11405.2367,E,16.25,339.32,170604,-1.6,E,A*2D
$GPRMC,111232.00,A,2233.9547,N,11405.2347,E,16.82,339.61,170604,-1.6,E,A*26
$GPRMC,111233.00,A,2233.9593,N,11405.2328,E,16.91,339.61,170604,-1.6,E,A*25
$GPRMC,111234.00,A,2233.9672,N,11405.2329,E,16.33,339.92,170604,-1.6,E,A*2B
$GPRMC,111235.00,A,2233.9717,N,11405.2315,E,15.29,340.11,170604,-1.6,E,A*2A
$GPRMC,111236.00,A,2233.9754,N,11405.2292,E,15.43,340.87,170604,-1.6,E,A*23
$GPRMC,111237.00,A,2233.9801,N,11405.2271,E,16.83,340.95,170604,-1.6,E,A*2C
$GPRMC,111238.00,A,2233.9851,N,11405.2249,E,17.95,340.70,170604,-1.6,E,A*20
$GPRMC,111239.00,A,2233.9901,N,11405.2228,E,19.14,340.34,170604,-1.6,E,A*25
$GPRMC,111240.00,A,2233.9955,N,11405.2205,E,20.02,340.30,170604,-1.6,E,A*2C
$GPRMC,111241.00,A,2234.0013,N,11405.2181,E,21.09,341.51,170604,-1.6,E,A*2B
$GPRMC,111242.00,A,2234.0092,N,11405.2173,E,22.12,341.85,170604,-1.6,E,A*2C
$GPRMC,111243.00,A,2234.0148,N,11405.2144,E,23.02,341.77,170604,-1.6,E,A*22
$GPRMC,111244.00,A,2234.0208,N,11405.2119,E,23.23,341.45,170604,-1.6,E,A*28
$GPRMC,111245.00,A,2234.0262,N,11405.2100,E,23.21,341.13,170604,-1.6,E,A*2C
$GPRMC,111246.00,A,2234.0323,N,11405.2085,E,23.12,340.56,170604,-1.6,E,A*27
$GPRMC,111247.00,A,2234.0377,N,11405.2070,E,23.65,339.89,170604,-1.6,E,A*21
$GPRMC,111248.00,A,2234.0440,N,11405.2039,E,24.03,339.05,170604,-1.6,E,A*23
$GPRMC,111249.00,A,2234.0504,N,11405.2011,E,24.87,337.99,170604,-1.6,E,A*2E
$GPRMC,111250.00,A,2234.0568,N,11405.1985,E,25.05,337.81,170604,-1.6,E,A*29
$GPRMC,111251.00,A,2234.0635,N,11405.1954,E,25.48,336.29,170604,-1.6,E,A*25
$GPRMC,111252.00,A,2234.0700,N,11405.1920,E,25.42,334.43,170604,-1.6,E,A*26
$GPRMC,111253.00,A,2234.0763,N,11405.1885,E,25.16,333.33,170604,-1.6,E,A*2D
$GPRMC,111254.00,A,2234.0832,N,11405.1843,E,24.11,332.19,170604,-1.6,E,A*24
$GPRMC,111255.00,A,2234.0888,N,11405.1807,E,23.20,331.24,170604,-1.6,E,A*2C
$GPRMC,111256.00,A,2234.0942,N,11405.1771,E,22.72,330.10,170604,-1.6,E,A*26
$GPRMC,111257.00,A,2234.0997,N,11405.1734,E,23.24,329.23,170604,-1.6,E,A*24
$GPRMC,111258.00,A,2234.1054,N,11405.1695,E,23.36,328.45,170604,-1.6,E,A*24
$GPRMC,111259.00,A,2234.1097,N,11405.1667,E,23.57,328.36,170604,-1.6,E,A*24
$GPRMC,111300.00,A,2234.1150,N,11405.1622,E,22.84,328.70,170604,-1.6,E,A*2F
$GPRMC,111301.00,A,2234.1201,N,11405.1586,E,21.66,328.76,170604,-1.6,E,A*2D
$GPRMC,111302.00,A,2234.1247,N,11405.1555,E,20.08,329.23,170604,-1.6,E,A*2A
$GPRMC,111303.00,A,2234.1290,N,11405.1524,E,18.76,329.80,170604,-1.6,E,A*2C
$GPRMC,111304.00,A,2234.1331,N,11405.1503,E,17.26,333.93,170604,-1.6,E,A*27
$GPRMC,111305.00,A,2234.1373,N,11405.1487,E,16.80,331.51,170604,-1.6,E,A*2C
$GPRMC,111306.00,A,2234.1422,N,11405.1431,E,15.98,330.25,170604,-1.6,E,A*29
$GPRMC,111307.00,A,2234.1462,N,11405.1393,E,15.72,324.98,170604,-1.6,E,A*24
$GPRMC,111308.00,A,2234.1497,N,11405.1391,E,15.11,328.57,170604,-1.6,E,A*29
$GPRMC,111309.00,A,2234.1541,N,11405.1394,E,14.79,331.00,170604,-1.6,E,A*22
$GPRMC,111310.00,A,2234.1575,N,11405.1363,E,14.92,330.52,170604,-1.6,E,A*26
$GPRMC,111311.00,A,2234.1610,N,11405.1340,E,14.78,330.88,170604,-1.6,E,A*25
$GPRMC,111312.00,A,2234.1646,N,11405.1315,E,15.19,329.56,170604,-1.6,E,A*28
$GPRMC,111313.00,A,2234.1680,N,11405.1291,E,14.09,328.92,170604,-1.6,E,A*27
$GPRMC,111314.00,A,2234.1706,N,11405.1273,E,11.37,328.32,170604,-1.6,E,A*21
$GPRMC,111315.00,A,2234.1727,N,11405.1260,E,9.41,327.71,170604,-1.6,E,A*11
$GPRMC,111316.00,A,2234.1730,N,11405.1267,E,8.34,328.78,170604,-1.6,E,A*16
$GPRMC,111317.00,A,2234.1750,N,11405.1283,E,8.12,328.60,170604,-1.6,E,A*16
$GPRMC,111318.00,A,2234.1773,N,11405.1242,E,8.76,327.73,170604,-1.6,E,A*1A
$GPRMC,111319.00,A,2234.1803,N,11405.1215,E,10.22,326.59,170604,-1.6,E,A*20
$GPRMC,111320.00,A,2234.1844,N,11405.1201,E,11.86,326.60,170604,-1.6,E,A*29
$GPRMC,111321.00,A,2234.1879,N,11405.1173,E,13.60,326.58,170604,-1.6,E,A*21
$GPRMC,111322.00,A,2234.1916,N,11405.1145,E,14.84,325.92,170604,-1.6,E,A*27
$GPRMC,111323.00,A,2234.1956,N,11405.1122,E,15.79,326.27,170604,-1.6,E,A*2D
$GPRMC,111324.00,A,2234.1997,N,11405.1101,E,16.25,326.77,170604,-1.6,E,A*29
$GPRMC,111325.00,A,2234.2032,N,11405.1064,E,17.33,326.24,170604,-1.6,E,A*2F
$GPRMC,111326.00,A,2234.2077,N,11405.1027,E,18.59,324.59,170604,-1.6,E,A*21
$GPRMC,111327.00,A,2234.2107,N,11405.0990,E,17.25,321.04,170604,-1.6,E,A*2B
$GPRMC,111328.00,A,2234.2134,N,11405.0953,E,16.07,317.49,170604,-1.6,E,A*26
$GPRMC,111329.00,A,2234.2180,N,11405.0915,E,18.17,320.56,170604,-1.6,E,A*2F
$GPRMC,111330.00,A,2234.2226,N,11405.0876,E,18.39,320.09,170604,-1.6,E,A*2A
$GPRMC,111331.00,A,2234.2271,N,11405.0839,E,18.93,320.32,170604,-1.6,E,A*2A
$GPRMC,111332.00,A,2234.2311,N,11405.0802,E,18.70,319.12,170604,-1.6,E,A*23
$GPRMC,111333.00,A,2234.2355,N,11405.0765,E,18.71,319.08,170604,-1.6,E,A*26
$GPRMC,111334.00,A,2234.2398,N,11405.0729,E,18.05,318.14,170604,-1.6,E,A*27
$GPRMC,111335.00,A,2234.2446,N,11405.0692,E,17.80,316.71,170604,-1.6,E,A*2C
$GPRMC,111336.00,A,2234.2495,N,11405.0655,E,18.27,316.74,170604,-1.6,E,A*2D
$GPRMC,111337.00,A,2234.2528,N,11405.0607,E,19.06,315.94,170604,-1.6,E,A*23
$GPRMC,111338.00,A,2234.2563,N,11405.0552,E,19.35,313.70,170604,-1.6,E,A*2C
$GPRMC,111339.00,A,2234.2610,N,11405.0509,E,20.70,313.42,170604,-1.6,E,A*2E
$GPRMC,111340.00,A,2234.2653,N,11405.0459,E,21.62,312.79,170604,-1.6,E,A*28
$GPRMC,111341.00,A,2234.2697,N,11405.0406,E,22.32,312.01,170604,-1.6,E,A*22
$GPRMC,111342.00,A,2234.2740,N,11405.0353,E,22.68,311.18,170604,-1.6,E,A*29
$GPRMC,111343.00,A,2234.2782,N,11405.0299,E,23.15,310.00,170604,-1.6,E,A*22
$GPRMC,111344.00,A,2234.2824,N,11405.0240,E,23.75,308.02,170604,-1.6,E,A*2F
$GPRMC,111345.00,A,2234.2867,N,11405.0181,E,23.98,307.29,170604,-1.6,E,A*22
$GPRMC,111346.00,A,2234.2895,N,11405.0104,E,23.65,306.58,170604,-1.6,E,A*24
$GPRMC,111347.00,A,2234.2932,N,11405.0043,E,23.24,305.88,170604,-1.6,E,A*20
$GPRMC,111348.00,A,2234.2967,N,11404.9986,E,23.02,303.95,170604,-1.6,E,A*29
$GPRMC,111349.00,A,2234.3000,N,11404.9930,E,22.63,302.66,170604,-1.6,E,A*27
$GPRMC,111350.00,A,2234.3032,N,11404.9878,E,21.79,301.29,170604,-1.6,E,A*23
$GPRMC,111351.00,A,2234.3059,N,11404.9831,E,20.31,300.23,170604,-1.6,E,A*24
$GPRMC,111352.00,A,2234.3077,N,11404.9799,E,19.71,299.69,170604,-1.6,E,A*27
$GPRMC,111353.00,A,2234.3104,N,11404.9748,E,19.58,298.81,170604,-1.6,E,A*23
$GPRMC,111354.00,A,2234.3129,N,11404.9699,E,18.86,296.99,170604,-1.6,E,A*23
$GPRMC,111355.00,A,2234.3158,N,11404.9658,E,18.05,299.21,170604,-1.6,E,A*2E
$GPRMC,111356.00,A,2234.3190,N,11404.9598,E,18.47,297.82,170604,-1.6,E,A*27
$GPRMC,111357.00,A,2234.3215,N,11404.9543,E,19.65,295.59,170604,-1.6,E,A*2B
$GPRMC,111358.00,A,2234.3241,N,11404.9484,E,20.88,295.65,170604,-1.6,E,A*29
$GPRMC,111359.00,A,2234.3266,N,11404.9423,E,21.85,294.63,170604,-1.6,E,A*2B
$GPRMC,111400.00,A,2234.3292,N,11404.9355,E,22.76,293.08,170604,-1.6,E,A*28
$GPRMC,111401.00,A,2234.3314,N,11404.9294,E,23.31,292.40,170604,-1.6,E,A*25
$GPRMC,111402.00,A,2234.3340,N,11404.9222,E,23.76,290.97,170604,-1.6,E,A*21
$GPRMC,111403.00,A,2234.3367,N,11404.9149,E,24.00,289.73,170604,-1.6,E,A*2F
$GPRMC,111404.00,A,2234.3381,N,11404.9079,E,23.64,287.61,170604,-1.6,E,A*2A
$GPRMC,111405.00,A,2234.3400,N,11404.9006,E,23.94,286.42,170604,-1.6,E,A*22
$GPRMC,111406.00,A,2234.3419,N,11404.8934,E,24.19,285.47,170604,-1.6,E,A*24
$GPRMC,111407.00,A,2234.3445,N,11404.8860,E,24.29,283.78,170604,-1.6,E,A*25
$GPRMC,111408.00,A,2234.3459,N,11404.8787,E,24.21,283.02,170604,-1.6,E,A*24
$GPRMC,111409.00,A,2234.3473,N,11404.8716,E,23.96,283.07,170604,-1.6,E,A*2B
$GPRMC,111410.00,A,2234.3489,N,11404.8641,E,23.61,281.97,170604,-1.6,E,A*26
$GPRMC,111411.00,A,2234.3502,N,11404.8568,E,23.76,281.56,170604,-1.6,E,A*26
$GPRMC,111412.00,A,2234.3509,N,11404.8505,E,23.49,280.40,170604,-1.6,E,A*2F
$GPRMC,111413.00,A,2234.3519,N,11404.8433,E,23.81,279.50,170604,-1.6,E,A*28
$GPRMC,111414.00,A,2234.3531,N,11404.8358,E,24.57,279.79,170604,-1.6,E,A*28
$GPRMC,111415.00,A,2234.3544,N,11404.8283,E,24.64,280.15,170604,-1.6,E,A*20
$GPRMC,111416.00,A,2234.3559,N,11404.8200,E,25.36,279.74,170604,-1.6,E,A*23
$GPRMC,111417.00,A,2234.3571,N,11404.8117,E,26.63,279.85,170604,-1.6,E,A*20
$GPRMC,111418.00,A,2234.3586,N,11404.8031,E,27.99,280.48,170604,-1.6,E,A*21
$GPRMC,111419.00,A,2234.3598,N,11404.7943,E,28.38,278.87,170604,-1.6,E,A*2C
$GPRMC,111420.00,A,2234.3606,N,11404.7859,E,28.02,277.33,170604,-1.6,E,A*21
$GPRMC,111421.00,A,2234.3614,N,11404.7776,E,27.66,276.99,170604,-1.6,E,A*2D
$GPRMC,111422.00,A,2234.3626,N,11404.7694,E,27.46,275.82,170604,-1.6,E,A*29
$GPRMC,111423.00,A,2234.3638,N,11404.7615,E,26.69,273.70,170604,-1.6,E,A*29
$GPRMC,111424.00,A,2234.3643,N,11404.7538,E,25.87,272.98,170604,-1.6,E,A*2A
$GPRMC,111425.00,A,2234.3643,N,11404.7462,E,25.17,272.18,170604,-1.6,E,A*24
$GPRMC,111426.00,A,2234.3641,N,11404.7385,E,25.43,271.45,170604,-1.6,E,A*21
$GPRMC,111427.00,A,2234.3634,N,11404.7308,E,25.83,271.21,170604,-1.6,E,A*29
$GPRMC,111428.00,A,2234.3609,N,11404.7237,E,25.52,270.70,170604,-1.6,E,A*2C
$GPRMC,111429.00,A,2234.3631,N,11404.7166,E,25.06,271.47,170604,-1.6,E,A*25
$GPRMC,111430.00,A,2234.3625,N,11404.7092,E,24.76,269.21,170604,-1.6,E,A*2D
$GPRMC,111431.00,A,2234.3636,N,11404.7011,E,25.05,266.71,170604,-1.6,E,A*2A
$GPRMC,111432.00,A,2234.3631,N,11404.6936,E,24.92,264.59,170604,-1.6,E,A*24
$GPRMC,111433.00,A,2234.3624,N,11404.6858,E,24.94,263.84,170604,-1.6,E,A*29
$GPRMC,111434.00,A,2234.3613,N,11404.6784,E,24.98,262.72,170604,-1.6,E,A*20
$GPRMC,111435.00,A,2234.3601,N,11404.6709,E,25.02,261.59,170604,-1.6,E,A*2F
$GPRMC,111436.00,A,2234.3585,N,11404.6635,E,24.71,260.38,170604,-1.6,E,A*2E
$GPRMC,111437.00,A,2234.3562,N,11404.6554,E,23.92,260.35,170604,-1.6,E,A*25
$GPRMC,111438.00,A,2234.3543,N,11404.6483,E,23.36,259.33,170604,-1.6,E,A*20
$GPRMC,111439.00,A,2234.3525,N,11404.6416,E,23.07,258.54,170604,-1.6,E,A*2F
$GPRMC,111440.00,A,2234.3514,N,11404.6365,E,23.17,256.97,170604,-1.6,E,A*20
$GPRMC,111441.00,A,2234.3496,N,11404.6300,E,23.43,255.66,170604,-1.6,E,A*25
$GPRMC,111442.00,A,2234.3460,N,11404.6234,E,24.32,254.73,170604,-1.6,E,A*2D
$GPRMC,111443.00,A,2234.3442,N,11404.6160,E,25.07,253.91,170604,-1.6,E,A*22
$GPRMC,111444.00,A,2234.3426,N,11404.6083,E,25.85,252.97,170604,-1.6,E,A*26
$GPRMC,111445.00,A,2234.3405,N,11404.6004,E,26.37,251.49,170604,-1.6,E,A*23
$GPRMC,111446.00,A,2234.3384,N,11404.5927,E,26.48,250.74,170604,-1.6,E,A*22
$GPRMC,111447.00,A,2234.3358,N,11404.5849,E,26.55,249.35,170604,-1.6,E,A*2A
$GPRMC,111448.00,A,2234.3329,N,11404.5775,E,26.20,248.28,170604,-1.6,E,A*2C
$GPRMC,111449.00,A,2234.3300,N,11404.5701,E,25.86,247.78,170604,-1.6,E,A*20
$GPRMC,111450.00,A,2234.3272,N,11404.5622,E,26.65,248.07,170604,-1.6,E,A*25
$GPRMC,111451.00,A,2234.3241,N,11404.5548,E,27.03,246.14,170604,-1.6,E,A*26
$GPRMC,111452.00,A,2234.3208,N,11404.5476,E,26.82,244.63,170604,-1.6,E,A*2E
$GPRMC,111453.00,A,2234.3176,N,11404.5410,E,25.89,243.82,170604,-1.6,E,A*25
$GPRMC,111454.00,A,2234.3142,N,11404.5344,E,25.75,242.40,170604,-1.6,E,A*2F
$GPRMC,111455.00,A,2234.3107,N,11404.5277,E,26.02,241.47,170604,-1.6,E,A*29
$GPRMC,111456.00,A,2234.3072,N,11404.5207,E,26.19,242.04,170604,-1.6,E,A*20
$GPRMC,111457.00,A,2234.3006,N,11404.5132,E,27.25,238.98,170604,-1.6,E,A*21
$GPRMC,111458.00,A,2234.2962,N,11404.5062,E,27.82,235.69,170604,-1.6,E,A*2E
$GPRMC,111459.00,A,2234.2942,N,11404.4992,E,27.60,235.87,170604,-1.6,E,A*26
$GPRMC,111500.00,A,2234.2904,N,11404.4919,E,27.76,235.82,170604,-1.6,E,A*28
$GPRMC,111501.00,A,2234.2856,N,11404.4843,E,29.18,235.15,170604,-1.6,E,A*29
$GPRMC,111502.00,A,2234.2803,N,11404.4766,E,29.95,234.46,170604,-1.6,E,A*20
$GPRMC,111503.00,A,2234.2750,N,11404.4690,E,30.31,233.91,170604,-1.6,E,A*2B
$GPRMC,111504.00,A,2234.2698,N,11404.4615,E,30.07,233.91,170604,-1.6,E,A*21
$GPRMC,111505.00,A,2234.2649,N,11404.4540,E,29.81,233.87,170604,-1.6,E,A*2E
$GPRMC,111506.00,A,2234.2602,N,11404.4468,E,29.08,234.54,170604,-1.6,E,A*21
$GPRMC,111507.00,A,2234.2552,N,11404.4396,E,29.19,233.73,170604,-1.6,E,A*22
$GPRMC,111508.00,A,2234.2502,N,11404.4324,E,28.98,233.47,170604,-1.6,E,A*2E
$GPRMC,111509.00,A,2234.2452,N,11404.4253,E,29.00,233.09,170604,-1.6,E,A*20
$GPRMC,111510.00,A,2234.2402,N,11404.4183,E,28.78,232.92,170604,-1.6,E,A*2E
$GPRMC,111511.00,A,2234.2353,N,11404.4113,E,28.96,233.12,170604,-1.6,E,A*2C
$GPRMC,111512.00,A,2234.2305,N,11404.4042,E,29.08,233.32,170604,-1.6,E,A*2D
$GPRMC,111513.00,A,2234.2257,N,11404.3970,E,29.03,234.29,170604,-1.6,E,A*23
$GPRMC,111514.00,A,2234.2213,N,11404.3896,E,28.97,235.81,170604,-1.6,E,A*22
$GPRMC,111515.00,A,2234.2169,N,11404.3822,E,29.09,236.85,170604,-1.6,E,A*23
$GPRMC,111516.00,A,2234.2105,N,11404.3744,E,28.80,236.96,170604,-1.6,E,A*27
$GPRMC,111517.00,A,2234.2082,N,11404.3673,E,28.24,238.87,170604,-1.6,E,A*2D
$GPRMC,111518.00,A,2234.2048,N,11404.3603,E,27.70,239.97,170604,-1.6,E,A*2D
$GPRMC,111519.00,A,2234.2015,N,11404.3516,E,27.85,242.39,170604,-1.6,E,A*21
$GPRMC,111520.00,A,2234.1984,N,11404.3435,E,28.11,244.40,170604,-1.6,E,A*23
$GPRMC,111521.00,A,2234.1953,N,11404.3365,E,28.05,244.96,170604,-1.6,E,A*24
$GPRMC,111522.00,A,2234.1922,N,11404.3283,E,28.17,246.25,170604,-1.6,E,A*21
$GPRMC,111523.00,A,2234.1895,N,11404.3188,E,29.13,249.20,170604,-1.6,E,A*2A
$GPRMC,111524.00,A,2234.1870,N,11404.3101,E,29.26,251.78,170604,-1.6,E,A*25
$GPRMC,111525.00,A,2234.1846,N,11404.3018,E,29.03,253.80,170604,-1.6,E,A*2A
$GPRMC,111526.00,A,2234.1822,N,11404.2943,E,28.47,254.28,170604,-1.6,E,A*29
$GPRMC,111527.00,A,2234.1801,N,11404.2862,E,28.52,257.25,170604,-1.6,E,A*21
$GPRMC,111528.00,A,2234.1784,N,11404.2778,E,27.89,257.91,170604,-1.6,E,A*2E
$GPRMC,111529.00,A,2234.1770,N,11404.2693,E,27.54,258.35,170604,-1.6,E,A*21
$GPRMC,111530.00,A,2234.1757,N,11404.2611,E,27.60,259.11,170604,-1.6,E,A*26
$GPRMC,111531.00,A,2234.1744,N,11404.2531,E,27.51,259.38,170604,-1.6,E,A*2D
$GPRMC,111532.00,A,2234.1730,N,11404.2450,E,27.40,259.37,170604,-1.6,E,A*24
$GPRMC,111533.00,A,2234.1714,N,11404.2377,E,26.37,258.73,170604,-1.6,E,A*21
$GPRMC,111534.00,A,2234.1698,N,11404.2309,E,25.14,257.84,170604,-1.6,E,A*2F
$GPRMC,111535.00,A,2234.1685,N,11404.2224,E,26.61,259.32,170604,-1.6,E,A*2E
$GPRMC,111536.00,A,2234.1672,N,11404.2125,E,26.62,258.90,170604,-1.6,E,A*2D
$GPRMC,111537.00,A,2234.1658,N,11404.2062,E,26.20,260.44,170604,-1.6,E,A*22
$GPRMC,111538.00,A,2234.1646,N,11404.1992,E,25.45,260.70,170604,-1.6,E,A*20
$GPRMC,111539.00,A,2234.1637,N,11404.1907,E,23.87,260.59,170604,-1.6,E,A*28
$GPRMC,111540.00,A,2234.1638,N,11404.1845,E,22.61,262.89,170604,-1.6,E,A*28
$GPRMC,111541.00,A,2234.1622,N,11404.1778,E,22.96,258.40,170604,-1.6,E,A*27
$GPRMC,111542.00,A,2234.1614,N,11404.1715,E,21.50,262.17,170604,-1.6,E,A*28
$GPRMC,111543.00,A,2234.1606,N,11404.1651,E,21.43,261.48,170604,-1.6,E,A*20
$GPRMC,111544.00,A,2234.1596,N,11404.1589,E,21.24,260.81,170604,-1.6,E,A*2E
$GPRMC,111545.00,A,2234.1584,N,11404.1547,E,21.27,260.28,170604,-1.6,E,A*2E
$GPRMC,111546.00,A,2234.1572,N,11404.1485,E,22.32,260.29,170604,-1.6,E,A*2D
$GPRMC,111547.00,A,2234.1559,N,11404.1413,E,23.72,259.40,170604,-1.6,E,A*2A
$GPRMC,111548.00,A,2234.1546,N,11404.1337,E,25.01,259.80,170604,-1.6,E,A*24
$GPRMC,111549.00,A,2234.1540,N,11404.1254,E,26.42,261.03,170604,-1.6,E,A*23
$GPRMC,111550.00,A,2234.1528,N,11404.1171,E,27.34,260.69,170604,-1.6,E,A*2C
$GPRMC,111551.00,A,2234.1510,N,11404.1086,E,28.28,260.72,170604,-1.6,E,A*27
$GPRMC,111552.00,A,2234.1495,N,11404.0981,E,28.47,260.75,170604,-1.6,E,A*29
$GPRMC,111553.00,A,2234.1478,N,11404.0910,E,28.84,261.08,170604,-1.6,E,A*27
$GPRMC,111554.00,A,2234.1466,N,11404.0807,E,28.81,260.59,170604,-1.6,E,A*28
$GPRMC,111555.00,A,2234.1451,N,11404.0737,E,28.00,260.11,170604,-1.6,E,A*24
$GPRMC,111556.00,A,2234.1439,N,11404.0663,E,26.29,259.59,170604,-1.6,E,A*2A
$GPRMC,111557.00,A,2234.1426,N,11404.0590,E,25.25,259.01,170604,-1.6,E,A*28
$GPRMC,111557.00,V,2234.1426,N,11404.0590,E,25.25,259.01,170604,-1.6,E,N*30
$GPRMC,111557.00,V,2234.1426,N,11404.0590,E,25.25,259.01,170604,-1.6,E,N*30
$GPRMC,111601.01,A,2234.1453,N,11404.0222,E,24.33,260.72,170604,-1.6,E,A*2D
$GPRMC,111602.00,A,2234.1462,N,11404.0116,E,23.74,262.06,170604,-1.6,E,A*2C
$GPRMC,111603.00,A,2234.1466,N,11404.0027,E,23.17,261.63,170604,-1.6,E,A*2F
$GPRMC,111604.00,A,2234.1465,N,11403.9949,E,23.28,264.99,170604,-1.6,E,A*28
$GPRMC,111605.00,A,2234.1462,N,11403.9876,E,21.54,261.77,170604,-1.6,E,A*2F
$GPRMC,111606.00,A,2234.1375,N,11403.9918,E,20.49,261.39,170604,-1.6,E,A*23
$GPRMC,111607.00,A,2234.1350,N,11403.9881,E,20.73,264.51,170604,-1.6,E,A*26
$GPRMC,111608.00,A,2234.1339,N,11403.9796,E,20.19,264.87,170604,-1.6,E,A*28
$GPRMC,111609.00,A,2234.1305,N,11403.9760,E,20.39,264.49,170604,-1.6,E,A*2F
$GPRMC,111610.00,A,2234.1297,N,11403.9698,E,20.73,265.35,170604,-1.6,E,A*2F
$GPRMC,111611.00,A,2234.1291,N,11403.9638,E,20.05,263.07,170604,-1.6,E,A*24
$GPRMC,111612.00,A,2234.1282,N,11403.9579,E,19.58,262.21,170604,-1.6,E,A*24
$GPRMC,111613.00,A,2234.1299,N,11403.9516,E,19.92,265.46,170604,-1.6,E,A*26
$GPRMC,111614.00,A,2234.1289,N,11403.9445,E,20.31,262.07,170604,-1.6,E,A*26
$GPRMC,111615.00,A,2234.1289,N,11403.9376,E,20.95,263.37,170604,-1.6,E,A*2C
$GPRMC,111616.00,A,2234.1282,N,11403.9307,E,21.80,263.26,170604,-1.6,E,A*27
$GPRMC,111617.00,A,2234.1272,N,11403.9242,E,21.92,263.33,170604,-1.6,E,A*2E
$GPRMC,111618.00,A,2234.1267,N,11403.9175,E,22.24,263.22,170604,-1.6,E,A*2C
$GPRMC,111619.00,A,2234.1261,N,11403.9109,E,22.45,264.33,170604,-1.6,E,A*20
$GPRMC,111620.00,A,2234.1254,N,11403.9043,E,22.26,262.51,170604,-1.6,E,A*24
$GPRMC,111621.00,A,2234.1246,N,11403.8971,E,22.68,262.58,170604,-1.6,E,A*2C
$GPRMC,111622.00,A,2234.1240,N,11403.8889,E,23.22,264.39,170604,-1.6,E,A*21
$GPRMC,111623.00,A,2234.1233,N,11403.8817,E,23.91,263.87,170604,-1.6,E,A*29
$GPRMC,111624.00,A,2234.1225,N,11403.8742,E,24.44,263.56,170604,-1.6,E,A*25
$GPRMC,111625.00,A,2234.1217,N,11403.8664,E,25.03,263.26,170604,-1.6,E,A*25
$GPRMC,111626.00,A,2234.1209,N,11403.8583,E,25.83,263.17,170604,-1.6,E,A*29
$GPRMC,111627.00,A,2234.1200,N,11403.8502,E,26.18,262.97,170604,-1.6,E,A*20
$GPRMC,111628.00,A,2234.1190,N,11403.8415,E,27.05,263.19,170604,-1.6,E,A*28
$GPRMC,111629.00,A,2234.1180,N,11403.8336,E,27.34,263.16,170604,-1.6,E,A*23
$GPRMC,111630.00,A,2234.1170,N,11403.8253,E,27.50,262.86,170604,-1.6,E,A*2C
$GPRMC,111631.00,A,2234.1161,N,11403.8170,E,27.49,262.89,170604,-1.6,E,A*28
$GPRMC,111632.00,A,2234.1150,N,11403.8086,E,27.47,262.74,170604,-1.6,E,A*2D
$GPRMC,111633.00,A,2234.1140,N,11403.8004,E,27.49,263.30,170604,-1.6,E,A*28
$GPRMC,111634.00,A,2234.1141,N,11403.7956,E,23.91,264.94,170604,-1.6,E,A*27
$GPRMC,111635.00,A,2234.1134,N,11403.7867,E,25.97,264.59,170604,-1.6,E,A*26
$GPRMC,111636.00,A,2234.1122,N,11403.7768,E,27.35,261.72,170604,-1.6,E,A*24
$GPRMC,111637.00,A,2234.1106,N,11403.7677,E,28.11,259.59,170604,-1.6,E,A*27
$GPRMC,111638.00,A,2234.1085,N,11403.7589,E,28.87,257.78,170604,-1.6,E,A*22
$GPRMC,111639.00,A,2234.1061,N,11403.7513,E,28.74,255.70,170604,-1.6,E,A*2C
$GPRMC,111640.00,A,2234.1033,N,11403.7435,E,25.39,252.65,170604,-1.6,E,A*27
$GPRMC,111641.00,A,2234.1007,N,11403.7372,E,21.25,237.34,170604,-1.6,E,A*2B
$GPRMC,111642.00,A,2234.0985,N,11403.7309,E,20.52,247.82,170604,-1.6,E,A*2D
$GPRMC,111643.00,A,2234.0953,N,11403.7242,E,24.72,244.92,170604,-1.6,E,A*2D
$GPRMC,111644.00,A,2234.0891,N,11403.7174,E,26.78,245.55,170604,-1.6,E,A*21
$GPRMC,111645.00,A,2234.0921,N,11403.7004,E,28.05,245.56,170604,-1.6,E,A*2B
$GPRMC,111646.00,A,2234.0886,N,11403.6914,E,28.29,244.49,170604,-1.6,E,A*2C
$GPRMC,111647.00,A,2234.0827,N,11403.6855,E,28.32,243.90,170604,-1.6,E,A*2B
$GPRMC,111648.00,A,2234.0781,N,11403.6785,E,28.25,241.40,170604,-1.6,E,A*2C
$GPRMC,111649.00,A,2234.0730,N,11403.6710,E,28.73,241.77,170604,-1.6,E,A*2C
$GPRMC,111650.00,A,2234.0674,N,11403.6655,E,28.42,240.10,170604,-1.6,E,A*27
$GPRMC,111651.00,A,2234.0627,N,11403.6589,E,28.00,240.60,170604,-1.6,E,A*23
$GPRMC,111652.00,A,2234.0644,N,11403.6470,E,27.36,241.77,170604,-1.6,E,A*2F
$GPRMC,111653.00,A,2234.0599,N,11403.6399,E,26.73,241.32,170604,-1.6,E,A*2C
$GPRMC,111654.00,A,2234.0557,N,11403.6331,E,26.41,241.36,170604,-1.6,E,A*2E
$GPRMC,111655.00,A,2234.0520,N,11403.6259,E,26.64,242.01,170604,-1.6,E,A*20
$GPRMC,111656.00,A,2234.0507,N,11403.6198,E,26.51,241.54,170604,-1.6,E,A*2D
$GPRMC,111657.00,A,2234.0454,N,11403.6128,E,26.53,241.29,170604,-1.6,E,A*28
$GPRMC,111658.00,A,2234.0420,N,11403.6054,E,26.18,241.59,170604,-1.6,E,A*26
$GPRMC,111659.00,A,2234.0390,N,11403.5980,E,25.87,241.39,170604,-1.6,E,A*2B
$GPRMC,111700.00,A,2234.0351,N,11403.5908,E,25.66,242.23,170604,-1.6,E,A*2C
$GPRMC,111701.00,A,2234.0332,N,11403.5841,E,25.50,244.66,170604,-1.6,E,A*26
$GPRMC,111702.00,A,2234.0282,N,11403.5769,E,25.70,242.30,170604,-1.6,E,A*2D
$GPRMC,111703.00,A,2234.0245,N,11403.5699,E,25.86,241.49,170604,-1.6,E,A*2D
$GPRMC,111704.00,A,2234.0186,N,11403.5657,E,24.49,232.80,170604,-1.6,E,A*27
$GPRMC,111705.00,A,2234.0159,N,11403.5606,E,23.87,233.30,170604,-1.6,E,A*2F
$GPRMC,111706.00,A,2234.0106,N,11403.5529,E,26.01,239.39,170604,-1.6,E,A*20
$GPRMC,111707.00,A,2234.0095,N,11403.5457,E,26.14,241.09,170604,-1.6,E,A*2A
$GPRMC,111708.00,A,2234.0070,N,11403.5382,E,26.49,240.70,170604,-1.6,E,A*26
$GPRMC,111709.00,A,2234.0038,N,11403.5304,E,26.86,241.40,170604,-1.6,E,A*24
$GPRMC,111710.00,A,2234.0001,N,11403.5229,E,26.90,241.08,170604,-1.6,E,A*23
$GPRMC,111711.00,A,2233.9965,N,11403.5150,E,27.18,241.31,170604,-1.6,E,A*21
$GPRMC,111712.00,A,2233.9930,N,11403.5075,E,27.27,241.44,170604,-1.6,E,A*2A
$GPRMC,111713.00,A,2233.9897,N,11403.4995,E,27.79,242.16,170604,-1.6,E,A*2E
$GPRMC,111714.00,A,2233.9861,N,11403.4901,E,27.96,242.43,170604,-1.6,E,A*2C
